id,url,freq,name,latitude,longitude
306878,https://www.zomato.com/ncr/mystery-of-food-indirapuram-ghaziabad,1,Mystery Of Food,28.6472235397,77.3746470362
313207,https://www.zomato.com/ncr/smokeys-bbq-and-grill-khan-market-new-delhi,1,Smokey's BBQ And Grill,28.6007324548,77.2274192423
18749590,https://www.zomato.com/mumbai/bindaas-begum-rockin-raja-mulund-west,1,Bindaas Begum Rockin' Raja,19.1606160873,72.9455776513
18745519,https://www.zomato.com/ncr/united-coffee-house-rewind-nehru-place-new-delhi,1,United Coffee House Rewind,28.5514634009,77.2513975203
18725664,https://www.zomato.com/ncr/leaf-n-loaf-sector-62-noida,1,Leaf N Loaf,28.6284862000,77.3737337440
18796020,https://www.zomato.com/ncr/coffee-bond-sector-31-gurgaon,1,Coffee Bond,28.4457025106,77.0448466390
18722480,https://www.zomato.com/ncr/farzi-cafe-aerocity-new-delhi,1,Farzi Cafe,28.5517060000,77.1217050000
18895645,https://www.zomato.com/ncr/plum-by-bent-chair-aerocity-new-delhi,1,Plum By Bent Chair,28.5515400000,77.1227040000
18429148,https://www.zomato.com/ncr/pa-pa-ya-saket-new-delhi,1,Pa Pa Ya,28.5285368249,77.2184998915
18902297,https://www.zomato.com/ncr/drunken-detective-indirapuram-ghaziabad,1,Drunken Detective,28.6399527569,77.3693184927
18277258,https://www.zomato.com/ncr/bercos-indirapuram-ghaziabad,1,Berco's,28.6396811594,77.3688548058
18374889,https://www.zomato.com/ncr/the-readers-cafe-indirapuram-ghaziabad,1,The Reader's Cafe,28.6398000386,77.3694445565
306595,https://www.zomato.com/ncr/dee-the-bakerr-ip-extension-new-delhi,1,Dee The Bakerr,28.6358281070,77.3044140637
18416984,https://www.zomato.com/dubai/filli-1-mankhool,1,FiLLi,25.2547617959,55.3035171703
200124,https://www.zomato.com/dubai/yo-sushi-mankhool,1,YO! Sushi - يو! سوشي,25.2537674996,55.3032999113
18289242,https://www.zomato.com/CyberHubSocial,1,Cyber Hub Social,28.4940571661,77.0883668214
18448323,https://www.zomato.com/ncr/little-after-dark-indirapuram-ghaziabad,1,Little After Dark,28.6398809587,77.3684591800
18532447,https://www.zomato.com/ncr/foozy-dlf-phase-1-gurgaon,1,Foozy,28.4749167754,77.1024199203
71083,https://www.zomato.com/chennai/colony-the-raintree-alwarpet,1,Colony - The Raintree,13.0286787298,80.2524457499
71768,https://www.zomato.com/chennai/waffles-thru-the-day-adyar,1,Waffles Thru The Day,12.9960721646,80.2526351810
300688,https://www.zomato.com/ncr/caf%C3%A9-knosh-the-leela-ambience-convention-hotel-vivek-vihar-new-delhi,1,Café Knosh - The Leela Ambience Convention Hotel,28.6615650124,77.3027490824
97758,https://www.zomato.com/hyderabad/dadus-banjara-hills,1,Dadu's,17.4076462336,78.4425105527
91662,https://www.zomato.com/hyderabad/paradise-biryani-paradise-circle-secunderabad,1,Paradise Biryani,17.4416986084,78.4875260666
18222574,https://www.zomato.com/ncr/caf%C3%A9-pluck-pullman-new-delhi-aerocity-aerocity-new-delhi,1,Café Pluck - Pullman New Delhi Aerocity,28.5545290000,77.1240222000
18540816,https://www.zomato.com/ncr/spoon-chopsticks-indirapuram-ghaziabad,1,Spoon & Chopsticks,28.6473815434,77.3688185960
101146,https://www.zomato.com/jaipur/brown-sugar-bakers-cafe-malviya-nagar,1,Brown Sugar- Bakers & Cafe,26.8591910190,75.8087958768
18454596,https://www.zomato.com/jaipur/zarpar-malviya-nagar,1,Zarpar,26.8592786572,75.8088136464
101884,https://www.zomato.com/jaipur/mamus-infusion-c-scheme,1,Mamu's Infusion,26.9132224415,75.8029355854
101259,https://www.zomato.com/jaipur/on-the-house-c-scheme,1,On The House,26.9053370062,75.7945704460
100400,https://www.zomato.com/jaipur/okra-jaipur-marriott-hotel-tonk-road,1,Okra - Jaipur Marriott Hotel,26.8411157730,75.7965070009
4654,https://www.zomato.com/ncr/cafe-central-radisson-gurugram-sohna-road-city-center-sohna-road-gurgaon,1,Cafe Central - Radisson Gurugram Sohna Road City Center,28.4163256571,77.0411495492
306805,https://www.zomato.com/ncr/biryani-blues-sohna-road-gurgaon,1,Biryani Blues,28.4166910124,77.0416199416
18306533,https://www.zomato.com/ncr/the-brewhouse-radisson-gurugram-sohna-road-city-center-sohna-road-gurgaon,1,The Brewhouse - Radisson Gurugram Sohna Road City Center,28.4162728736,77.0412139222
18382353,https://www.zomato.com/ncr/del-roseate-house-aerocity-new-delhi,2,DEL - Roseate House,28.5508010000,77.1215950000
20841,https://www.zomato.com/kolkata/the-bridge-the-floatel-hotel-dalhousie-bbd-bagh,1,The Bridge - The Floatel Hotel,22.5694968174,88.3425071463
23442,https://www.zomato.com/kolkata/mynt-vivanta-kasba,1,Mynt - Vivanta,22.5136428513,88.3999992907
18272353,https://www.zomato.com/ncr/made-in-punjab-sector-18-noida,1,Made In Punjab,28.5667970337,77.3212590069
2025,https://www.zomato.com/ncr/moti-mahal-delux-tandoori-trail-sector-38-noida,1,Moti Mahal Delux Tandoori Trail,28.5671827752,77.3253845796
101212,https://www.zomato.com/jaipur/tapri-central-c-scheme,1,Tapri Central,26.8913840424,75.8036034554
18466951,https://www.zomato.com/ncr/jungle-jamboree-sector-34-noida,1,Jungle Jamboree,28.5744236000,77.3539326000
11079,https://www.zomato.com/pune/exotica-yerawada,1,Exotica,18.5530304407,73.8919940963
300695,https://www.zomato.com/ncr/dilli-32-the-leela-ambience-convention-hotel-vivek-vihar-new-delhi,1,Dilli 32 - The Leela Ambience Convention Hotel,28.6617071081,77.3028215021
18462002,https://www.zomato.com/ncr/baris-greater-kailash-gk-3-new-delhi,1,Baris,28.5374924497,77.2386456281
309113,https://www.zomato.com/ncr/boheme-bar-grill-saket-new-delhi,1,Boheme Bar & Grill,28.5276077575,77.2193488106
18419893,https://www.zomato.com/ncr/laat-saab-sector-38-noida,1,Laat Saab,28.5650055258,77.3217994720
18446392,https://www.zomato.com/ncr/a-grill-company-sector-34-noida,1,A Grill Company,28.5744827398,77.3533358797
311395,https://www.zomato.com/ncr/yo-china-sector-50-gurgaon,1,Yo! China,28.4211651124,77.0532852039
7752,https://www.zomato.com/ncr/la-brezza-jaypee-greens-golf-spa-resort-jaypee-greens,1,La Brezza - Jaypee Greens Golf & Spa Resort,28.4700959892,77.5184644014
8351,https://www.zomato.com/ncr/paatra-jaypee-greens-golf-spa-resort-jaypee-greens-greater-noida,1,Paatra - Jaypee Greens Golf & Spa Resort,28.4700921577,77.5184680894
3843,https://www.zomato.com/ncr/rasoi-deliver-indirapuram-ghaziabad,1,Rasoi Deliver,28.6386842170,77.3657642305
306386,https://www.zomato.com/ncr/chawlas-tandoori-junction-indirapuram-ghaziabad,1,Chawla's Tandoori Junction,28.6362433160,77.3690418899
910,https://www.zomato.com/ncr/united-coffee-house-connaught-place-new-delhi,1,United Coffee House,28.6324528181,77.2210674360
2298,https://www.zomato.com/ncr/haldirams-connaught-place-new-delhi,1,Haldiram's,28.6341154631,77.2222033516
110384,https://www.zomato.com/ahmedabad/subway-2-navrangpura,1,Subway,23.0330112335,72.5656336918
394,https://www.zomato.com/ncr/pizza-hut-sector-38-noida,1,Pizza Hut,28.5674754667,77.3260779306
310289,https://www.zomato.com/ncr/sandwedges-indirapuram-ghaziabad,1,Sandwedges,28.6381851537,77.3688551411
5019,https://www.zomato.com/ncr/patisserie-sweet-melodies-radisson-gurugram-sohna-road-city-center-sohna-road-gurgaon,1,Patisserie - Sweet Melodies - Radisson Gurugram Sohna Road City Center,28.4162195003,77.0412487909
35237,https://www.zomato.com/mumbai/maroosh-lower-parel,1,Maroosh,18.9949078028,72.8249724582
45417,https://www.zomato.com/mumbai/mad-over-donuts-lower-parel,1,Mad Over Donuts,18.9950159065,72.8249328956
43478,https://www.zomato.com/mumbai/the-coffee-bean-tea-leaf-1-lower-parel,1,The Coffee Bean & Tea Leaf,18.9949093879,72.8252151981
38416,https://www.zomato.com/mumbai/kebabs-kurries-itc-grand-central-parel,1,Kebabs & Kurries - ITC Grand Central,18.9982161855,72.8388894349
306016,https://www.zomato.com/ncr/cafe-coffee-day-2-nehru-place-new-delhi,1,Cafe Coffee Day,28.5516000500,77.2517948225
8132,https://www.zomato.com/ncr/cafe-coffee-day-sector-63-noida,1,Cafe Coffee Day,28.6272507763,77.3756877333
5598,https://www.zomato.com/ncr/cafe-coffee-day-sector-38-noida,1,Cafe Coffee Day,28.5676992544,77.3260246217
300410,https://www.zomato.com/ncr/cafe-coffee-day-5-rajouri-garden-delhi,1,Cafe Coffee Day,28.6514766110,77.1209234744
619,https://www.zomato.com/ncr/cafe-coffee-day-the-lounge-janpath-new-delhi,1,Cafe Coffee Day - The Lounge,28.6264582493,77.2202456743
596,https://www.zomato.com/ncr/cafe-coffee-day-1-connaught-place-new-delhi,1,Cafe Coffee Day,28.6322338767,77.2184221074
305251,https://www.zomato.com/ncr/barista-kirti-nagar-new-delhi,1,Barista,28.6570004914,77.1467799693
305252,https://www.zomato.com/ncr/barista-dlf-phase-3,1,Barista,28.5032210819,77.0973404869
514,https://www.zomato.com/ncr/barista-3-mg-road-gurgaon,1,Barista,28.4807130987,77.0802246407
8786,https://www.zomato.com/ncr/barista-kaushambi,1,Barista,28.6465638642,77.3199943453
5217,https://www.zomato.com/ncr/barista-vaishali-ghaziabad,1,Barista,28.6451106215,77.3360932991
535,https://www.zomato.com/ncr/barista-vasant-vihar-new-delhi,1,Barista,28.5569881245,77.1639943868
7869,https://www.zomato.com/ncr/barista-1-sector-38-noida,1,Barista,28.5676335904,77.3259371147
